stop_id,stop_code,stop_name,stop_desc,stop_lat,stop_lon,zone_id,stop_url,location_type,parent_station
8220DB006032,6032,Cathal Brugha Street,,53.3520595408087,-6.26029069507579,,,,
8260B1337302,133732,Kelleghers Cross,,53.4201256081706,-6.73621535751597,,,,
8260B1340301,134031,Kilcock,,53.3990669913034,-6.66751580948953,,,,
8320B1521001,152101,Birr,,53.0964053443443,-7.91077337100467,,,,
8320PB002720,,Tullamore General Hospital,,53.2828109086505,-7.49194315936737,,,,
833000007,,Supermarket Bus Stop,,53.4171618112641,-7.29610561996086,,,,
833000008,,Supermarket Bus Stop,,53.4171609246396,-7.29595520192244,,,,
833000010,,Kilbeggan NS,,53.3675855918387,-7.4940003499704,,,,
833000012,,Kilbeggan NS,,53.3677139495142,-7.49459985638806,,,,
833000027,,Main Street,,53.4544847254215,-7.1005513512105,,,,
8330B1354401,135441,Kinnegad,,53.4546178099968,-7.1003226882956,,,,
8460PB002253,,Merchants Road,,53.271557928214,-9.05119542988732,,,,
8220DB000762,762,RTE,,53.3145170648478,-6.22437094406494,,,,
8220DB000786,786,Embassy of Malta,,53.335182,-6.256098,,,,
8260GD10267,10267,Carbury,,53.3533658365584,-6.96370656344489,,,,
8220DB001013,1013,Earlsfort Terrace,,53.334181,-6.258346,,,,
8220DB007435,7435,Memorial Gardens,,53.3431789302748,-6.31538083570428,,,,
832000002,,The Priory,,53.1793159199527,-7.71715851331775,,,,
832000017,,McAuley Drive,,53.1018940476865,-7.90744694741591,,,,
832000029,,Centra,,53.2894077867523,-7.49625937177658,,,,
832000040,,Blueball,,53.2284520587932,-7.6155767284696,,,,
832000082,,Arden Vale,,53.2852770851546,-7.49281371173356,,,,
832000111,,Charleville Road,,53.26941,-7.50051,,,,
8460B5228301,522831,Woodhaven,,53.2764850154505,-9.00510422480431,,,,
8460B5229701,522971,The G Hotel,,53.281658,-9.032938,,,,
8470B135984,135984,Portumna,,53.0917211669223,-8.22144505214478,,,,
8220CO10996,10996,Parkgate Street,,53.347888,-6.290712,,,,
8220DB000021,21,DCU St Patrick's,,53.3701011992947,-6.25431059904442,,,,
8310B1332301,133231,Enfield,,53.413983963651,-6.82844435400106,,,,
8330B152171,152171,Sherwell Court,,53.3874509615894,-7.37874982350607,,,,
8330B1522101,152211,Rochfortbridge,,53.4129778440925,-7.30291342571914,,,,
8460B5243201,524321,Castlegar GAA Club,,53.277442516671,-8.97639727167632,,,,
8460B5244001,524401,Snipe Avenue,,53.2814570455463,-9.06493472467212,,,,
8460B5244601,524461,St Joseph's NS,,53.2834996934633,-9.07267882012999,,,,
8470B1359802,135982,Portumna,,53.091685245713,-8.2214299385154,,,,
8220DB000409,409,Holles Street,,53.3401367313169,-6.24769559556976,,,,
8260B1337301,133731,Kelleghers Cross,,53.4201256081706,-6.73621535751597,,,,
8320B1360001,136001,Screggan,,53.247809594027,-7.55828581049568,,,,
8320B1360002,136002,Screggan,,53.2478890313388,-7.5578954179516,,,,
8320PB002734,,Beechmount Park,,53.2500585336859,-7.55163954652877,,,,
8320PB002737,,Fivealley,,53.1522696407798,-7.83459094095056,,,,
8220DB000756,756,Royal Hospital,,53.3263997617783,-6.2425987467031,,,,
8220DB000759,759,Donnybrook Stadium,,53.3203488508422,-6.23334551683732,,,,
8220DB001642,1642,Whitehall Church,,53.3839478893434,-6.2436267222871,,,,
846000625,,O'Donnell Road,,53.272624,-9.08563,,,,
8470B533192,533192,Killimor,,53.1644797399379,-8.28588438183292,,,,
8220DB007012,7012,Memorial Gardens,,53.3429541422322,-6.31537467920354,,,,
8230DB002241,2241,Kennelsfort Road,,53.3549292563155,-6.37126802262207,,,,
8310B103241,103241,Clonard,,53.4510508692591,-7.02045337190321,,,,
8310B103381,103381,Enfield,,53.4140677623085,-6.82782529777324,,,,
832000001,,Eiscir Meadows,,53.2925541953687,-7.49647734601951,,,,
832000003,,The Priory,,53.1795231550812,-7.71738154598262,,,,
832000014,,Jennings Truck Centre,,53.2938042906501,-7.496687641632,,,,
832000016,,County Council Offices,,53.2691683270841,-7.50042496870966,,,,
832000041,,N52,,53.2284970899044,-7.61560627881016,,,,
832000064,,Outside Texaco Garage,,53.1052258500448,-7.90430367921392,,,,
832000068,11233,Tullamore Hospital,,53.2827931269394,-7.49198835790981,,,,
832000071,,Tullamore Hospital,,53.282749,-7.492094,,,,
832000080,,Train Station,,53.27054,-7.499524,,,,
832000083,,Entrance Slip Road,,53.2856459210741,-7.49289932542644,,,,
8460B5228101,522811,ATU Galway City,,53.2771986429052,-9.0099941515734,,,,
8220B1351001,135101,Wellington Quay,,53.3458641751298,-6.26381729294171,,,,
8220DB000847,847,Leeson Street Upper,,53.3316014451627,-6.25221961965177,,,,
8230B1034401,103441,Tandy's Lane,,53.354034360228,-6.45885242526344,,,,
8310B1332302,133232,Enfield,,53.4147899298015,-6.83365716837422,,,,
8330B150631,150631,Rochfortbridge,,53.4128788207479,-7.30288496139965,,,,
8460B5243401,524341,Dawn Dairies,,53.2775772474704,-9.01409658999614,,,,
8220DB000405,405,Nassau Street,,53.3424816891816,-6.2556043726643,,,,
8220DB001480,1480,Ormond Quay Upper,,53.3457659646525,-6.27067029772414,,,,
8230DB007184,7184,Esker Lane,,53.352158,-6.436192,,,,
8230DB007193,7193,Tandy's Lane,,53.353999,-6.458914,,,,
8260B1329901,132991,Farrells Nursery,,53.4290595460735,-6.95783347030244,,,,
8320B1312602,131262,Kilcormac,,53.1764189375198,-7.72739432027064,,,,
8320PB002711,,Columcille Street,,53.2757932097077,-7.49223628432272,,,,
8460B5236901,523691,Yeats College,,53.2763969103634,-9.04155294449566,,,,
8460B5259501,525951,Westside Retail,,53.276501,-9.073448,,,,
8220DB000045,45,DCU St Patrick's,,53.3699364344006,-6.25410694084966,,,,
8220DB000776,776,Morehampton Terrace,,53.3254792402812,-6.24173582106075,,,,
8220DB001620,1620,Whitehall Church,,53.3832628572882,-6.24410591269662,,,,
8250DB000764,764,Cranford Court,,53.3098352446177,-6.21781200815438,,,,
831000044,,Public House,,53.4509381942811,-7.01876974733054,,,,
8230DB002201,2201,Palmerstown Drive,,53.3532737532182,-6.36457116457729,,,,
8260DB003917,3917,Maynooth Station,,53.3795389497471,-6.58870222379746,,,,
832000007,,N52,,53.1521975563752,-7.83445666625648,,,,
832000015,,Jennings Truck Centre,,53.2937938477985,-7.49634277060417,,,,
832000024,,Mucklagh,,53.2538430124717,-7.54007595864685,,,,
832000043,,McAuley Drive,,53.1019662471948,-7.90783504413754,,,,
8460B5226901,522691,The G Hotel,,53.28114565287,-9.03186113484134,,,,
8460B5228401,522841,ATU Galway City,,53.2771129458502,-9.01056191792701,,,,
8460B5230101,523011,Eyre Square,,53.2747593973543,-9.04893497271276,,,,
8220DB004508,4508,Cathal Brugha Street,,53.3522523455036,-6.25995235703205,,,,
8260B1031601,103161,Maynooth University,,53.3820845147102,-6.59879461807352,,,,
8260B1033701,103371,Moyvalley,,53.4274964035581,-6.90958478477375,,,,
8260B103391,103391,Cloncurry Cross,,53.415439660208,-6.79144302865356,,,,
8260B1034001,103401,Kelleghers Cross,,53.4211810494741,-6.76233295323907,,,,
8260B1034301,103431,Maynooth University,,53.3821747093036,-6.59882172024453,,,,
8330B1522401,152241,Milltownpass,,53.4422149750772,-7.244198206835,,,,
8460B5244301,524431,Greenfields Estate,,53.2868756706255,-9.06904390306838,,,,
847000012,,Killimor,,53.1645879079581,-8.28575050984683,,,,
8230DB007186,7186,Lucan Spa Hotel,,53.356795,-6.465258,,,,
8260B1333601,133361,Cloncurry Cross,,53.4152672672839,-6.79216999215493,,,,
8320B135992,135992,Mucklagh,,53.2510451571855,-7.54873717682864,,,,
8320B1521801,152181,Birr,,53.0961086179587,-7.91057988540149,,,,
8320PB002730,,Blueball,,53.2284520587932,-7.6155767284696,,,,
8320PB002738,,Fivealley,,53.152206564337,-7.83447158180439,,,,
833000002,,Centra,,53.4162527532723,-7.29739928202598,,,,
833000009,,Dublin Road,,53.3675092936537,-7.49508309811251,,,,
8470B555411,555411,Loughrea,,53.1986272269671,-8.56792966825644,,,,
8220DB000772,772,Donnybrook Garage,,53.3184852574538,-6.23132106360093,,,,
8250DB000768,768,UCD Belfield,,53.309418194004,-6.21877482979352,,,,
8260DB005114,5114,Kingsbury,,53.3724015197691,-6.58935900125585,,,,
8260GD10268,10268,Carbury,,53.3532844459135,-6.9636484531383,,,,
8460B5225601,522561,Uni of Galway,,53.2767462993784,-9.06205866589211,,,,
8220DB001445,1445,Usher's Quay,,53.34592,-6.279466,,,,
8230DB002213,2213,Liffey Valley SC,,53.355778,-6.392073,,,,
8230DB002236,2236,Hermitage Bridge,,53.3588694641819,-6.41085651344615,,,,
8230DB002239,2239,Liffey Valley SC,,53.356168470617,-6.39172740046693,,,,
832000008,,Banagher,,53.1899322633014,-7.98686222692204,,,,
832000025,,Eye Cinema Galway,,53.2757658027692,-7.49213165517428,,,,
832000046,,Tullamore Hospital,,53.2819569194944,-7.49189330561979,,,,
832000047,,Tullamore Hospital,,53.2824599813511,-7.49184235120311,,,,
832000061,,Tullamore PO,,53.2742864452818,-7.49295880622788,,,,
832000062,,Mucklagh,,53.2538424343232,-7.53992610761439,,,,
832000063,,Charleville Castle,,53.2652145178608,-7.50921005928442,,,,
832000069,,GAA Pitch,,53.1755939617881,-7.73217126422795,,,,
832000077,11232,Tullamore Hospital,,53.282730284126,-7.49200409905577,,,,
8320B1028201,102821,Edenderry Town Hall,,53.3431316057814,-7.05039557796289,,,,
8320B102921,102921,Columcille St,,53.2771475153587,-7.49159049015503,,,,
8320B104531,104531,Tullamore Centre,,53.2768421600677,-7.49163909498816,,,,
8320B1046701,104671,Edenderry Town Hall,,53.3432702373514,-7.04974674464148,,,,
8320B1312601,131261,Kilcormac,,53.1763649807958,-7.72737970369221,,,,
8470B150741,150741,Loughrea,,53.1985798671568,-8.56843790372209,,,,
8220B1021101,102111,Batchelors Walk,,53.346833,-6.262471,,,,
8220B10995,10995,Heuston Station,,53.3458575428185,-6.29388714847594,,,,
8220B1351401,135141,George's Quay,,53.347377,-6.252222,,,,
8220DB000908,908,Grand Parade,,53.3311542855348,-6.25237303421842,,,,
8240000549,,Dublin Airport,,53.429161,-6.241048,,,,
8260B103361,103361,Farrells Nursery,,53.4289067957441,-6.95783720686133,,,,
8330B1354501,135451,Kinnegad,,53.4546320083705,-7.10101499714886,,,,
8330B150621,150621,Milltownpass,,53.4411855311126,-7.24626352197576,,,,
8330B150641,150641,Tyrellspass,,53.3875491072655,-7.37861309982306,,,,
8460B5242801,524281,Merlin Woods NS,,53.2849640439959,-8.98198268671039,,,,
8460B5243301,524331,Lios An Uisce,,53.2749049822559,-8.99954951190591,,,,
